$GNTXT,01,01,02,Stopping GNSS*52
$GNTXT,01,01,02,Starting GNSS*5A
$GNGNS,051402.45,,,,,NNNNNN,00,99.99,,,,,V*2A
$GNGGA,051402.45,,,,,0,00,99.99,,,,,,*7B
$GNZDA,051402.45,13,08,2023,00,00*72
$GNGNS,051403.00,4733.9691629,N,01900.4885453,E,AAAANN,28,0.53,198.964,39.430,,,V*19
$GNGGA,051403.00,4733.9691629,N,01900.4885453,E,1,12,0.53,198.964,M,39.430,M,,*40
$GNZDA,051403.00,13,08,2023,00,00*72
$GNGNS,051414.00,4733.9695221,N,01900.4865079,E,RRRRNN,29,0.55,198.732,39.430,1.0,4095,V*38
$GNGGA,051414.00,4733.9695221,N,01900.4865079,E,4,12,0.55,198.732,M,39.430,M,1.0,4095*65
$GNZDA,051414.00,13,08,2023,00,00*74
$GNGNS,051415.00,4733.9695219,N,01900.4865074,E,RRRRNN,29,0.55,198.730,39.430,1.0,4095,V*3D
$GNGGA,051415.00,4733.9695219,N,01900.4865074,E,4,12,0.55,198.730,M,39.430,M,1.0,4095*60
$GNZDA,051415.00,13,08,2023,00,00*75
$GNGNS,051416.00,4733.9695221,N,01900.4865082,E,RRRRNN,29,0.55,198.727,39.430,1.0,4095,V*3A
$GNGGA,051416.00,4733.9695221,N,01900.4865082,E,4,12,0.55,198.727,M,39.430,M,1.0,4095*67
$GNZDA,051416.00,13,08,2023,00,00*76
$GNGNS,051417.00,4733.9695221,N,01900.4865100,E,RRRRNN,29,0.55,198.732,39.430,1.0,4095,V*34
$GNGGA,051417.00,4733.9695221,N,01900.4865100,E,4,12,0.55,198.732,M,39.430,M,1.0,4095*69
$GNZDA,051417.00,13,08,2023,00,00*77
$GNGNS,051418.00,4733.9695224,N,01900.4865104,E,RRRRNN,29,0.55,198.732,39.430,1.0,4095,V*3A
$GNGGA,051418.00,4733.9695224,N,01900.4865104,E,4,12,0.55,198.732,M,39.430,M,1.0,4095*67
$GNZDA,051418.00,13,08,2023,00,00*78
$GNGNS,051419.00,4733.9695213,N,01900.4865098,E,RRRRNN,29,0.55,198.729,39.430,1.0,4095,V*31
$GNGGA,051419.00,4733.9695213,N,01900.4865098,E,4,12,0.55,198.729,M,39.430,M,1.0,4095*6C
$GNZDA,051419.00,13,08,2023,00,00*79
$GNGNS,051420.00,4733.9695211,N,01900.4865087,E,RRRRNN,29,0.55,198.727,39.430,1.0,4095,V*39
$GNGGA,051420.00,4733.9695211,N,01900.4865087,E,4,12,0.55,198.727,M,39.430,M,1.0,4095*64
$GNZDA,051420.00,13,08,2023,00,00*73
$GNGNS,051421.00,4733.9695210,N,01900.4865082,E,RRRRNN,29,0.55,198.726,39.430,1.0,4095,V*3D
$GNGGA,051421.00,4733.9695210,N,01900.4865082,E,4,12,0.55,198.726,M,39.430,M,1.0,4095*60
$GNZDA,051421.00,13,08,2023,00,00*72
$GNGNS,051422.00,4733.9695208,N,01900.4865093,E,RRRRNN,29,0.55,198.727,39.430,1.0,4095,V*36
$GNGGA,051422.00,4733.9695208,N,01900.4865093,E,4,12,0.55,198.727,M,39.430,M,1.0,4095*6B
$GNZDA,051422.00,13,08,2023,00,00*71
$GNGNS,051423.00,4733.9695212,N,01900.4865101,E,RRRRNN,29,0.55,198.725,39.430,1.0,4095,V*34
$GNGGA,051423.00,4733.9695212,N,01900.4865101,E,4,12,0.55,198.725,M,39.430,M,1.0,4095*69
$GNZDA,051423.00,13,08,2023,00,00*70
$GNGNS,051424.00,4733.9695216,N,01900.4865097,E,RRRRNN,29,0.55,198.724,39.430,1.0,4095,V*38
$GNGGA,051424.00,4733.9695216,N,01900.4865097,E,4,12,0.55,198.724,M,39.430,M,1.0,4095*65
$GNZDA,051424.00,13,08,2023,00,00*77
$GNGNS,051425.00,4733.9695219,N,01900.4865087,E,RRRRNN,29,0.55,198.719,39.430,1.0,4095,V*39
$GNGGA,051425.00,4733.9695219,N,01900.4865087,E,4,12,0.55,198.719,M,39.430,M,1.0,4095*64
$GNZDA,051425.00,13,08,2023,00,00*76
$GNGNS,051426.00,4733.9695223,N,01900.4865089,E,RRRRNN,29,0.55,198.721,39.430,1.0,4095,V*36
$GNGGA,051426.00,4733.9695223,N,01900.4865089,E,4,12,0.55,198.721,M,39.430,M,1.0,4095*6B
$GNZDA,051426.00,13,08,2023,00,00*75
$GNGNS,051427.00,4733.9695229,N,01900.4865101,E,RRRRNN,29,0.55,198.724,39.430,1.0,4095,V*39
$GNGGA,051427.00,4733.9695229,N,01900.4865101,E,4,12,0.55,198.724,M,39.430,M,1.0,4095*64
$GNZDA,051427.00,13,08,2023,00,00*74
$GNGNS,051428.00,4733.9695221,N,01900.4865097,E,RRRRNN,29,0.55,198.722,39.430,1.0,4095,V*36
$GNGGA,051428.00,4733.9695221,N,01900.4865097,E,4,12,0.55,198.722,M,39.430,M,1.0,4095*6B
$GNZDA,051428.00,13,08,2023,00,00*7B
$GNGNS,051429.00,4733.9695224,N,01900.4865087,E,RRRRNN,29,0.55,198.721,39.430,1.0,4095,V*30
$GNGGA,051429.00,4733.9695224,N,01900.4865087,E,4,12,0.55,198.721,M,39.430,M,1.0,4095*6D
$GNZDA,051429.00,13,08,2023,00,00*7A
$GNGNS,051430.00,4733.9695216,N,01900.4865082,E,RRRRNN,29,0.55,198.724,39.430,1.0,4095,V*39
$GNGGA,051430.00,4733.9695216,N,01900.4865082,E,4,12,0.55,198.724,M,39.430,M,1.0,4095*64
$GNZDA,051430.00,13,08,2023,00,00*72
$GNGNS,051431.00,4733.9695223,N,01900.4865089,E,RRRRNN,29,0.55,198.722,39.430,1.0,4095,V*33
$GNGGA,051431.00,4733.9695223,N,01900.4865089,E,4,12,0.55,198.722,M,39.430,M,1.0,4095*6E
$GNZDA,051431.00,13,08,2023,00,00*73
$GNGNS,051432.00,4733.9695223,N,01900.4865101,E,RRRRNN,29,0.55,198.724,39.430,1.0,4095,V*37
$GNGGA,051432.00,4733.9695223,N,01900.4865101,E,4,12,0.55,198.724,M,39.430,M,1.0,4095*6A
$GNZDA,051432.00,13,08,2023,00,00*70
$GNGNS,051433.00,4733.9695227,N,01900.4865104,E,RRRRNN,29,0.55,198.728,39.430,1.0,4095,V*3B
$GNGGA,051433.00,4733.9695227,N,01900.4865104,E,4,12,0.55,198.728,M,39.430,M,1.0,4095*66
$GNZDA,051433.00,13,08,2023,00,00*71
$GNGNS,051434.00,4733.9695221,N,01900.4865097,E,RRRRNN,29,0.55,198.726,39.430,1.0,4095,V*3F
$GNGGA,051434.00,4733.9695221,N,01900.4865097,E,4,12,0.55,198.726,M,39.430,M,1.0,4095*62
$GNZDA,051434.00,13,08,2023,00,00*76
$GNGNS,051435.00,4733.9695222,N,01900.4865090,E,RRRRNN,29,0.55,198.722,39.430,1.0,4095,V*3E
$GNGGA,051435.00,4733.9695222,N,01900.4865090,E,4,12,0.55,198.722,M,39.430,M,1.0,4095*63
$GNZDA,051435.00,13,08,2023,00,00*77
$GNGNS,051436.00,4733.9695227,N,01900.4865092,E,RRRRNN,29,0.55,198.724,39.430,1.0,4095,V*3C
$GNGGA,051436.00,4733.9695227,N,01900.4865092,E,4,12,0.55,198.724,M,39.430,M,1.0,4095*61
$GNZDA,051436.00,13,08,2023,00,00*74
$GNGNS,051437.00,4733.9695225,N,01900.4865094,E,RRRRNN,29,0.55,198.724,39.430,1.0,4095,V*39
$GNGGA,051437.00,4733.9695225,N,01900.4865094,E,4,12,0.55,198.724,M,39.430,M,1.0,4095*64
$GNZDA,051437.00,13,08,2023,00,00*75
$GNGNS,051438.00,4733.9695223,N,01900.4865105,E,RRRRNN,29,0.55,198.727,39.430,1.0,4095,V*3A
$GNGGA,051438.00,4733.9695223,N,01900.4865105,E,4,12,0.55,198.727,M,39.430,M,1.0,4095*67
$GNZDA,051438.00,13,08,2023,00,00*7A
$GNGNS,051439.00,4733.9695226,N,01900.4865096,E,RRRRNN,29,0.55,198.727,39.430,1.0,4095,V*35
$GNGGA,051439.00,4733.9695226,N,01900.4865096,E,4,12,0.55,198.727,M,39.430,M,1.0,4095*68
$GNZDA,051439.00,13,08,2023,00,00*7B
$GNGNS,051440.00,4733.9695229,N,01900.4865102,E,RRRRNN,29,0.57,198.734,39.430,1.0,4095,V*38
$GNGGA,051440.00,4733.9695229,N,01900.4865102,E,4,12,0.57,198.734,M,39.430,M,1.0,4095*65
$GNZDA,051440.00,13,08,2023,00,00*75
$GNGNS,051441.00,4733.9695225,N,01900.4865070,E,RRRRNN,29,0.55,198.720,39.430,1.0,4095,V*36
$GNGGA,051441.00,4733.9695225,N,01900.4865070,E,4,12,0.55,198.720,M,39.430,M,1.0,4095*6B
$GNZDA,051441.00,13,08,2023,00,00*74
$GNGNS,051442.00,4733.9695218,N,01900.4865095,E,RRRRNN,29,0.55,198.726,39.430,1.0,4095,V*36
$GNGGA,051442.00,4733.9695218,N,01900.4865095,E,4,12,0.55,198.726,M,39.430,M,1.0,4095*6B
$GNZDA,051442.00,13,08,2023,00,00*77
$GNGNS,051443.00,4733.9695227,N,01900.4865108,E,RRRRNN,29,0.55,198.727,39.430,1.0,4095,V*3F
$GNGGA,051443.00,4733.9695227,N,01900.4865108,E,4,12,0.55,198.727,M,39.430,M,1.0,4095*62
$GNZDA,051443.00,13,08,2023,00,00*76
$GNGNS,051444.00,4733.9695232,N,01900.4865098,E,RRRRNN,29,0.55,198.724,39.430,1.0,4095,V*37
$GNGGA,051444.00,4733.9695232,N,01900.4865098,E,4,12,0.55,198.724,M,39.430,M,1.0,4095*6A
$GNZDA,051444.00,13,08,2023,00,00*71
$GNGNS,051445.00,4733.9695220,N,01900.4865095,E,RRRRNN,29,0.55,198.722,39.430,1.0,4095,V*3E
$GNGGA,051445.00,4733.9695220,N,01900.4865095,E,4,12,0.55,198.722,M,39.430,M,1.0,4095*63
$GNZDA,051445.00,13,08,2023,00,00*70
$GNGNS,051446.00,4733.9695225,N,01900.4865090,E,RRRRNN,29,0.55,198.722,39.430,1.0,4095,V*3D
$GNGGA,051446.00,4733.9695225,N,01900.4865090,E,4,12,0.55,198.722,M,39.430,M,1.0,4095*60
$GNZDA,051446.00,13,08,2023,00,00*73
$GNGNS,051447.00,4733.9695225,N,01900.4865084,E,RRRRNN,29,0.55,198.723,39.430,1.0,4095,V*38
$GNGGA,051447.00,4733.9695225,N,01900.4865084,E,4,12,0.55,198.723,M,39.430,M,1.0,4095*65
$GNZDA,051447.00,13,08,2023,00,00*72
$GNGNS,051448.00,4733.9695227,N,01900.4865101,E,RRRRNN,29,0.55,198.726,39.430,1.0,4095,V*3C
$GNGGA,051448.00,4733.9695227,N,01900.4865101,E,4,12,0.55,198.726,M,39.430,M,1.0,4095*61
$GNZDA,051448.00,13,08,2023,00,00*7D
$GNGNS,051449.00,4733.9695224,N,01900.4865102,E,RRRRNN,29,0.55,198.724,39.430,1.0,4095,V*3F
$GNGGA,051449.00,4733.9695224,N,01900.4865102,E,4,12,0.55,198.724,M,39.430,M,1.0,4095*62
$GNZDA,051449.00,13,08,2023,00,00*7C
$GNGNS,051450.00,4733.9695225,N,01900.4865082,E,RRRRNN,29,0.55,198.718,39.430,1.0,4095,V*30
$GNGGA,051450.00,4733.9695225,N,01900.4865082,E,4,12,0.55,198.718,M,39.430,M,1.0,4095*6D
$GNZDA,051450.00,13,08,2023,00,00*74
$GNGNS,051451.00,4733.9695229,N,01900.4865110,E,RRRRNN,29,0.57,198.732,39.430,1.0,4095,V*3D
$GNGGA,051451.00,4733.9695229,N,01900.4865110,E,4,12,0.57,198.732,M,39.430,M,1.0,4095*60
$GNZDA,051451.00,13,08,2023,00,00*75
$GNGNS,051452.00,4733.9695223,N,01900.4865101,E,RRRRNN,29,0.55,198.726,39.430,1.0,4095,V*33
$GNGGA,051452.00,4733.9695223,N,01900.4865101,E,4,12,0.55,198.726,M,39.430,M,1.0,4095*6E
$GNZDA,051452.00,13,08,2023,00,00*76
$GNGNS,051453.00,4733.9695223,N,01900.4865098,E,RRRRNN,29,0.55,198.726,39.430,1.0,4095,V*33
$GNGGA,051453.00,4733.9695223,N,01900.4865098,E,4,12,0.55,198.726,M,39.430,M,1.0,4095*6E
$GNZDA,051453.00,13,08,2023,00,00*77
$GNGNS,051454.00,4733.9695209,N,01900.4865078,E,RRRRNN,29,0.55,198.721,39.430,1.0,4095,V*35
$GNGGA,051454.00,4733.9695209,N,01900.4865078,E,4,12,0.55,198.721,M,39.430,M,1.0,4095*68
$GNZDA,051454.00,13,08,2023,00,00*70
$GNGNS,051455.00,4733.9695223,N,01900.4865107,E,RRRRNN,29,0.58,198.731,39.430,1.0,4095,V*39
$GNGGA,051455.00,4733.9695223,N,01900.4865107,E,4,12,0.58,198.731,M,39.430,M,1.0,4095*64
$GNZDA,051455.00,13,08,2023,00,00*71
$GNGNS,051456.00,4733.9695221,N,01900.4865124,E,RRRRNN,29,0.58,198.736,39.430,1.0,4095,V*3E
$GNGGA,051456.00,4733.9695221,N,01900.4865124,E,4,12,0.58,198.736,M,39.430,M,1.0,4095*63
$GNZDA,051456.00,13,08,2023,00,00*72
$GNGNS,051457.00,4733.9695218,N,01900.4865096,E,RRRRNN,28,0.56,198.727,39.430,1.0,4095,V*32
$GNGGA,051457.00,4733.9695218,N,01900.4865096,E,4,12,0.56,198.727,M,39.430,M,1.0,4095*6E
$GNZDA,051457.00,13,08,2023,00,00*73
$GNGNS,051458.00,4733.9695218,N,01900.4865093,E,RRRRNN,28,0.56,198.722,39.430,1.0,4095,V*3D
$GNGGA,051458.00,4733.9695218,N,01900.4865093,E,4,12,0.56,198.722,M,39.430,M,1.0,4095*61
$GNZDA,051458.00,13,08,2023,00,00*7C
$GNGNS,051459.00,4733.9695236,N,01900.4865112,E,RRRRNN,28,0.58,198.731,39.430,1.0,4095,V*34
$GNGGA,051459.00,4733.9695236,N,01900.4865112,E,4,12,0.58,198.731,M,39.430,M,1.0,4095*68
$GNZDA,051459.00,13,08,2023,00,00*7D
$GNGNS,051500.00,4733.9695233,N,01900.4865115,E,RRRRNN,28,0.58,198.730,39.430,1.0,4095,V*3A
$GNGGA,051500.00,4733.9695233,N,01900.4865115,E,4,12,0.58,198.730,M,39.430,M,1.0,4095*66
$GNZDA,051500.00,13,08,2023,00,00*70
$GNGNS,051501.00,4733.9695233,N,01900.4865121,E,RRRRNN,28,0.58,198.728,39.430,1.0,4095,V*35
$GNGGA,051501.00,4733.9695233,N,01900.4865121,E,4,12,0.58,198.728,M,39.430,M,1.0,4095*69
$GNZDA,051501.00,13,08,2023,00,00*71
$GNGNS,051502.00,4733.9695230,N,01900.4865108,E,RRRRNN,28,0.56,198.727,39.430,1.0,4095,V*3F
$GNGGA,051502.00,4733.9695230,N,01900.4865108,E,4,12,0.56,198.727,M,39.430,M,1.0,4095*63
$GNZDA,051502.00,13,08,2023,00,00*72
$GNGNS,051503.00,4733.9695236,N,01900.4865101,E,RRRRNN,28,0.56,198.729,39.430,1.0,4095,V*3F
$GNGGA,051503.00,4733.9695236,N,01900.4865101,E,4,12,0.56,198.729,M,39.430,M,1.0,4095*63
$GNZDA,051503.00,13,08,2023,00,00*73
$GNGNS,051504.00,4733.9695245,N,01900.4865109,E,RRRRNN,28,0.58,198.737,39.430,1.0,4095,V*35
$GNGGA,051504.00,4733.9695245,N,01900.4865109,E,4,12,0.58,198.737,M,39.430,M,1.0,4095*69
$GNZDA,051504.00,13,08,2023,00,00*74
$GNGNS,051505.00,4733.9695239,N,01900.4865102,E,RRRRNN,28,0.58,198.732,39.430,1.0,4095,V*31
$GNGGA,051505.00,4733.9695239,N,01900.4865102,E,4,12,0.58,198.732,M,39.430,M,1.0,4095*6D
$GNZDA,051505.00,13,08,2023,00,00*75
$GNGNS,051506.00,4733.9695231,N,01900.4865098,E,RRRRNN,28,0.56,198.722,39.430,1.0,4095,V*37
$GNGGA,051506.00,4733.9695231,N,01900.4865098,E,4,12,0.56,198.722,M,39.430,M,1.0,4095*6B
$GNZDA,051506.00,13,08,2023,00,00*76
$GNGNS,051507.00,4733.9695228,N,01900.4865104,E,RRRRNN,28,0.56,198.721,39.430,1.0,4095,V*39
$GNGGA,051507.00,4733.9695228,N,01900.4865104,E,4,12,0.56,198.721,M,39.430,M,1.0,4095*65
$GNZDA,051507.00,13,08,2023,00,00*77
$GNGNS,051508.00,4733.9695229,N,01900.4865100,E,RRRRNN,28,0.56,198.723,39.430,1.0,4095,V*31
$GNGGA,051508.00,4733.9695229,N,01900.4865100,E,4,12,0.56,198.723,M,39.430,M,1.0,4095*6D
$GNZDA,051508.00,13,08,2023,00,00*78
$GNGNS,051509.00,4733.9695220,N,01900.4865093,E,RRRRNN,28,0.56,198.724,39.430,1.0,4095,V*35
$GNGGA,051509.00,4733.9695220,N,01900.4865093,E,4,12,0.56,198.724,M,39.430,M,1.0,4095*69
$GNZDA,051509.00,13,08,2023,00,00*79
$GNGNS,051510.00,4733.9695222,N,01900.4865086,E,RRRRNN,28,0.56,198.723,39.430,1.0,4095,V*3C
$GNGGA,051510.00,4733.9695222,N,01900.4865086,E,4,12,0.56,198.723,M,39.430,M,1.0,4095*60
$GNZDA,051510.00,13,08,2023,00,00*71
$GNGNS,051511.00,4733.9695223,N,01900.4865083,E,RRRRNN,28,0.56,198.729,39.430,1.0,4095,V*33
$GNGGA,051511.00,4733.9695223,N,01900.4865083,E,4,12,0.56,198.729,M,39.430,M,1.0,4095*6F
$GNZDA,051511.00,13,08,2023,00,00*70
$GNGNS,051512.00,4733.9695222,N,01900.4865071,E,RRRRNN,28,0.56,198.725,39.430,1.0,4095,V*30
$GNGGA,051512.00,4733.9695222,N,01900.4865071,E,4,12,0.56,198.725,M,39.430,M,1.0,4095*6C
$GNZDA,051512.00,13,08,2023,00,00*73
$GNGNS,051513.00,4733.9695214,N,01900.4865074,E,RRRRNN,28,0.56,198.724,39.430,1.0,4095,V*30
$GNGGA,051513.00,4733.9695214,N,01900.4865074,E,4,12,0.56,198.724,M,39.430,M,1.0,4095*6C
$GNZDA,051513.00,13,08,2023,00,00*72
$GNGNS,051514.00,4733.9695213,N,01900.4865077,E,RRRRNN,28,0.56,198.718,39.430,1.0,4095,V*3C
$GNGGA,051514.00,4733.9695213,N,01900.4865077,E,4,12,0.56,198.718,M,39.430,M,1.0,4095*60
$GNZDA,051514.00,13,08,2023,00,00*75
$GNGNS,051515.00,4733.9695232,N,01900.4865095,E,RRRRNN,28,0.58,198.731,39.430,1.0,4095,V*37
$GNGGA,051515.00,4733.9695232,N,01900.4865095,E,4,12,0.58,198.731,M,39.430,M,1.0,4095*6B
$GNZDA,051515.00,13,08,2023,00,00*74
$GNGNS,051516.00,4733.9695230,N,01900.4865112,E,RRRRNN,28,0.58,198.732,39.430,1.0,4095,V*3B
$GNGGA,051516.00,4733.9695230,N,01900.4865112,E,4,12,0.58,198.732,M,39.430,M,1.0,4095*67
$GNZDA,051516.00,13,08,2023,00,00*77
$GNGNS,051517.00,4733.9695224,N,01900.4865105,E,RRRRNN,28,0.58,198.730,39.430,1.0,4095,V*3B
$GNGGA,051517.00,4733.9695224,N,01900.4865105,E,4,12,0.58,198.730,M,39.430,M,1.0,4095*67
$GNZDA,051517.00,13,08,2023,00,00*76
$GNGNS,051518.00,4733.9695230,N,01900.4865085,E,RRRRNN,28,0.58,198.724,39.430,1.0,4095,V*3D
$GNGGA,051518.00,4733.9695230,N,01900.4865085,E,4,12,0.58,198.724,M,39.430,M,1.0,4095*61
$GNZDA,051518.00,13,08,2023,00,00*79
$GNGNS,051519.00,4733.9695222,N,01900.4865086,E,RRRRNN,28,0.58,198.728,39.430,1.0,4095,V*30
$GNGGA,051519.00,4733.9695222,N,01900.4865086,E,4,12,0.58,198.728,M,39.430,M,1.0,4095*6C
$GNZDA,051519.00,13,08,2023,00,00*78
$GNGNS,051520.00,4733.9695212,N,01900.4865098,E,RRRRNN,28,0.58,198.731,39.430,1.0,4095,V*3E
$GNGGA,051520.00,4733.9695212,N,01900.4865098,E,4,12,0.58,198.731,M,39.430,M,1.0,4095*62
$GNZDA,051520.00,13,08,2023,00,00*72
$GNGNS,051521.00,4733.9695226,N,01900.4865100,E,RRRRNN,28,0.58,198.736,39.430,1.0,4095,V*3F
$GNGGA,051521.00,4733.9695226,N,01900.4865100,E,4,12,0.58,198.736,M,39.430,M,1.0,4095*63
$GNZDA,051521.00,13,08,2023,00,00*73
$GNGNS,051522.00,4733.9695237,N,01900.4865106,E,RRRRNN,28,0.58,198.733,39.430,1.0,4095,V*3F
$GNGGA,051522.00,4733.9695237,N,01900.4865106,E,4,12,0.58,198.733,M,39.430,M,1.0,4095*63
$GNZDA,051522.00,13,08,2023,00,00*70
$GNGNS,051523.00,4733.9695238,N,01900.4865109,E,RRRRNN,28,0.58,198.731,39.430,1.0,4095,V*3C
$GNGGA,051523.00,4733.9695238,N,01900.4865109,E,4,12,0.58,198.731,M,39.430,M,1.0,4095*60
$GNZDA,051523.00,13,08,2023,00,00*71
$GNGNS,051524.00,4733.9695229,N,01900.4865099,E,RRRRNN,28,0.58,198.728,39.430,1.0,4095,V*3B
$GNGGA,051524.00,4733.9695229,N,01900.4865099,E,4,12,0.58,198.728,M,39.430,M,1.0,4095*67
$GNZDA,051524.00,13,08,2023,00,00*76
$GNGNS,051525.00,4733.9695231,N,01900.4865112,E,RRRRNN,28,0.58,198.731,39.430,1.0,4095,V*39
$GNGGA,051525.00,4733.9695231,N,01900.4865112,E,4,12,0.58,198.731,M,39.430,M,1.0,4095*65
$GNZDA,051525.00,13,08,2023,00,00*77
$GNGNS,051526.00,4733.9695236,N,01900.4865108,E,RRRRNN,28,0.56,198.732,39.430,1.0,4095,V*3B
$GNGGA,051526.00,4733.9695236,N,01900.4865108,E,4,12,0.56,198.732,M,39.430,M,1.0,4095*67
$GNZDA,051526.00,13,08,2023,00,00*74
$GNGNS,051527.00,4733.9695234,N,01900.4865102,E,RRRRNN,28,0.56,198.733,39.430,1.0,4095,V*33
$GNGGA,051527.00,4733.9695234,N,01900.4865102,E,4,12,0.56,198.733,M,39.430,M,1.0,4095*6F
$GNZDA,051527.00,13,08,2023,00,00*75
$GNGNS,051528.00,4733.9695226,N,01900.4865102,E,RRRRNN,28,0.56,198.730,39.430,1.0,4095,V*3C
$GNGGA,051528.00,4733.9695226,N,01900.4865102,E,4,12,0.56,198.730,M,39.430,M,1.0,4095*60
$GNZDA,051528.00,13,08,2023,00,00*7A
$GNGNS,051529.00,4733.9695220,N,01900.4865105,E,RRRRNN,28,0.56,198.730,39.430,1.0,4095,V*3C
$GNGGA,051529.00,4733.9695220,N,01900.4865105,E,4,12,0.56,198.730,M,39.430,M,1.0,4095*60
$GNZDA,051529.00,13,08,2023,00,00*7B
$GNGNS,051530.00,4733.9695233,N,01900.4865099,E,RRRRNN,28,0.56,198.729,39.430,1.0,4095,V*3A
$GNGGA,051530.00,4733.9695233,N,01900.4865099,E,4,12,0.56,198.729,M,39.430,M,1.0,4095*66
$GNZDA,051530.00,13,08,2023,00,00*73
$GNGNS,051531.00,4733.9695242,N,01900.4865107,E,RRRRNN,28,0.56,198.729,39.430,1.0,4095,V*3B
$GNGGA,051531.00,4733.9695242,N,01900.4865107,E,4,12,0.56,198.729,M,39.430,M,1.0,4095*67
$GNZDA,051531.00,13,08,2023,00,00*72
$GNGNS,051532.00,4733.9695244,N,01900.4865117,E,RRRRNN,28,0.58,198.728,39.430,1.0,4095,V*30
$GNGGA,051532.00,4733.9695244,N,01900.4865117,E,4,12,0.58,198.728,M,39.430,M,1.0,4095*6C
$GNZDA,051532.00,13,08,2023,00,00*71
$GNGNS,051533.00,4733.9695240,N,01900.4865103,E,RRRRNN,28,0.58,198.727,39.430,1.0,4095,V*3F
$GNGGA,051533.00,4733.9695240,N,01900.4865103,E,4,12,0.58,198.727,M,39.430,M,1.0,4095*63
$GNZDA,051533.00,13,08,2023,00,00*70
$GNGNS,051534.00,4733.9695242,N,01900.4865105,E,RRRRNN,28,0.58,198.730,39.430,1.0,4095,V*3A
$GNGGA,051534.00,4733.9695242,N,01900.4865105,E,4,12,0.58,198.730,M,39.430,M,1.0,4095*66
$GNZDA,051534.00,13,08,2023,00,00*77
$GNGNS,051535.00,4733.9695248,N,01900.4865086,E,RRRRNN,28,0.58,198.729,39.430,1.0,4095,V*33
$GNGGA,051535.00,4733.9695248,N,01900.4865086,E,4,12,0.58,198.729,M,39.430,M,1.0,4095*6F
$GNZDA,051535.00,13,08,2023,00,00*76
$GNGNS,051536.00,4733.9695240,N,01900.4865080,E,RRRRNN,28,0.58,198.728,39.430,1.0,4095,V*3F
$GNGGA,051536.00,4733.9695240,N,01900.4865080,E,4,12,0.58,198.728,M,39.430,M,1.0,4095*63
$GNZDA,051536.00,13,08,2023,00,00*75
$GNGNS,051537.00,4733.9695217,N,01900.4865086,E,RRRRNN,28,0.56,198.724,39.430,1.0,4095,V*38
$GNGGA,051537.00,4733.9695217,N,01900.4865086,E,4,12,0.56,198.724,M,39.430,M,1.0,4095*64
$GNZDA,051537.00,13,08,2023,00,00*74
$GNGNS,051538.00,4733.9695225,N,01900.4865085,E,RRRRNN,28,0.56,198.723,39.430,1.0,4095,V*32
$GNGGA,051538.00,4733.9695225,N,01900.4865085,E,4,12,0.56,198.723,M,39.430,M,1.0,4095*6E
$GNZDA,051538.00,13,08,2023,00,00*7B
$GNGNS,051539.00,4733.9695231,N,01900.4865078,E,RRRRNN,28,0.56,198.719,39.430,1.0,4095,V*3D
$GNGGA,051539.00,4733.9695231,N,01900.4865078,E,4,12,0.56,198.719,M,39.430,M,1.0,4095*61
$GNZDA,051539.00,13,08,2023,00,00*7A
$GNGNS,051540.00,4733.9695227,N,01900.4865082,E,RRRRNN,28,0.56,198.717,39.430,1.0,4095,V*3F
$GNGGA,051540.00,4733.9695227,N,01900.4865082,E,4,12,0.56,198.717,M,39.430,M,1.0,4095*63
$GNZDA,051540.00,13,08,2023,00,00*74
$GNGNS,051541.00,4733.9695225,N,01900.4865100,E,RRRRNN,28,0.56,198.725,39.430,1.0,4095,V*36
$GNGGA,051541.00,4733.9695225,N,01900.4865100,E,4,12,0.56,198.725,M,39.430,M,1.0,4095*6A
$GNZDA,051541.00,13,08,2023,00,00*75
$GNGNS,051542.00,4733.9695245,N,01900.4865102,E,RRRRNN,28,0.58,198.733,39.430,1.0,4095,V*38
$GNGGA,051542.00,4733.9695245,N,01900.4865102,E,4,12,0.58,198.733,M,39.430,M,1.0,4095*64
$GNZDA,051542.00,13,08,2023,00,00*76
$GNGNS,051543.00,4733.9695230,N,01900.4865094,E,RRRRNN,28,0.56,198.726,39.430,1.0,4095,V*3F
$GNGGA,051543.00,4733.9695230,N,01900.4865094,E,4,12,0.56,198.726,M,39.430,M,1.0,4095*63
$GNZDA,051543.00,13,08,2023,00,00*77
$GNGNS,051544.00,4733.9695231,N,01900.4865072,E,RRRRNN,28,0.56,198.713,39.430,1.0,4095,V*37
$GNGGA,051544.00,4733.9695231,N,01900.4865072,E,4,12,0.56,198.713,M,39.430,M,1.0,4095*6B
$GNZDA,051544.00,13,08,2023,00,00*70
$GNGNS,051545.00,4733.9695224,N,01900.4865070,E,RRRRNN,28,0.56,198.714,39.430,1.0,4095,V*37
$GNGGA,051545.00,4733.9695224,N,01900.4865070,E,4,12,0.56,198.714,M,39.430,M,1.0,4095*6B
$GNZDA,051545.00,13,08,2023,00,00*71
$GNGNS,051546.00,4733.9695226,N,01900.4865093,E,RRRRNN,28,0.58,198.726,39.430,1.0,4095,V*34
$GNGGA,051546.00,4733.9695226,N,01900.4865093,E,4,12,0.58,198.726,M,39.430,M,1.0,4095*68
$GNZDA,051546.00,13,08,2023,00,00*72
$GNGNS,051547.00,4733.9695233,N,01900.4865104,E,RRRRNN,28,0.58,198.729,39.430,1.0,4095,V*31
$GNGGA,051547.00,4733.9695233,N,01900.4865104,E,4,12,0.58,198.729,M,39.430,M,1.0,4095*6D
$GNZDA,051547.00,13,08,2023,00,00*73
$GNGNS,051548.00,4733.9695226,N,01900.4865102,E,RRRRNN,28,0.58,198.729,39.430,1.0,4095,V*3C
$GNGGA,051548.00,4733.9695226,N,01900.4865102,E,4,12,0.58,198.729,M,39.430,M,1.0,4095*60
$GNZDA,051548.00,13,08,2023,00,00*7C
$GNGNS,051549.00,4733.9695223,N,01900.4865086,E,RRRRNN,28,0.56,198.720,39.430,1.0,4095,V*32
$GNGGA,051549.00,4733.9695223,N,01900.4865086,E,4,12,0.56,198.720,M,39.430,M,1.0,4095*6E
$GNZDA,051549.00,13,08,2023,00,00*7D
$GNGNS,051550.00,4733.9695234,N,01900.4865083,E,RRRRNN,28,0.56,198.718,39.430,1.0,4095,V*32
$GNGGA,051550.00,4733.9695234,N,01900.4865083,E,4,12,0.56,198.718,M,39.430,M,1.0,4095*6E
$GNZDA,051550.00,13,08,2023,00,00*75
$GNGNS,051551.00,4733.9695225,N,01900.4865094,E,RRRRNN,28,0.56,198.725,39.430,1.0,4095,V*3B
$GNGGA,051551.00,4733.9695225,N,01900.4865094,E,4,12,0.56,198.725,M,39.430,M,1.0,4095*67
$GNZDA,051551.00,13,08,2023,00,00*74
$GNGNS,051552.00,4733.9695236,N,01900.4865106,E,RRRRNN,28,0.58,198.735,39.430,1.0,4095,V*3F
$GNGGA,051552.00,4733.9695236,N,01900.4865106,E,4,12,0.58,198.735,M,39.430,M,1.0,4095*63
$GNZDA,051552.00,13,08,2023,00,00*77
$GNGNS,051553.00,4733.9695235,N,01900.4865092,E,RRRRNN,28,0.58,198.731,39.430,1.0,4095,V*35
$GNGGA,051553.00,4733.9695235,N,01900.4865092,E,4,12,0.58,198.731,M,39.430,M,1.0,4095*69
$GNZDA,051553.00,13,08,2023,00,00*76
$GNGNS,051554.00,4733.9695220,N,01900.4865079,E,RRRRNN,28,0.56,198.719,39.430,1.0,4095,V*37
$GNGGA,051554.00,4733.9695220,N,01900.4865079,E,4,12,0.56,198.719,M,39.430,M,1.0,4095*6B
$GNZDA,051554.00,13,08,2023,00,00*71
$GNGNS,051555.00,4733.9695215,N,01900.4865067,E,RRRRNN,28,0.56,198.717,39.430,1.0,4095,V*31
$GNGGA,051555.00,4733.9695215,N,01900.4865067,E,4,12,0.56,198.717,M,39.430,M,1.0,4095*6D
$GNZDA,051555.00,13,08,2023,00,00*70
$GNGNS,051556.00,4733.9695240,N,01900.4865076,E,RRRRNN,28,0.56,198.731,39.430,1.0,4095,V*36
$GNGGA,051556.00,4733.9695240,N,01900.4865076,E,4,12,0.56,198.731,M,39.430,M,1.0,4095*6A
$GNZDA,051556.00,13,08,2023,00,00*73
$GNGNS,051557.00,4733.9695252,N,01900.4865089,E,RRRRNN,28,0.56,198.739,39.430,1.0,4095,V*3C
$GNGGA,051557.00,4733.9695252,N,01900.4865089,E,4,12,0.56,198.739,M,39.430,M,1.0,4095*60
$GNZDA,051557.00,13,08,2023,00,00*72
$GNGNS,051558.00,4733.9695251,N,01900.4865097,E,RRRRNN,28,0.56,198.736,39.430,1.0,4095,V*30
$GNGGA,051558.00,4733.9695251,N,01900.4865097,E,4,12,0.56,198.736,M,39.430,M,1.0,4095*6C
$GNZDA,051558.00,13,08,2023,00,00*7D
$GNGNS,051559.00,4733.9695228,N,01900.4865094,E,RRRRNN,28,0.56,198.725,39.430,1.0,4095,V*3E
$GNGGA,051559.00,4733.9695228,N,01900.4865094,E,4,12,0.56,198.725,M,39.430,M,1.0,4095*62
$GNZDA,051559.00,13,08,2023,00,00*7C
$GNGNS,051600.00,4733.9695219,N,01900.4865079,E,RRRRNN,28,0.56,198.723,39.430,1.0,4095,V*36
$GNGGA,051600.00,4733.9695219,N,01900.4865079,E,4,12,0.56,198.723,M,39.430,M,1.0,4095*6A
$GNZDA,051600.00,13,08,2023,00,00*73
$GNGNS,051601.00,4733.9695240,N,01900.4865077,E,RRRRNN,28,0.56,198.727,39.430,1.0,4095,V*31
$GNGGA,051601.00,4733.9695240,N,01900.4865077,E,4,12,0.56,198.727,M,39.430,M,1.0,4095*6D
$GNZDA,051601.00,13,08,2023,00,00*72
$GNGNS,051602.00,4733.9695251,N,01900.4865092,E,RRRRNN,28,0.56,198.737,39.430,1.0,4095,V*38
$GNGGA,051602.00,4733.9695251,N,01900.4865092,E,4,12,0.56,198.737,M,39.430,M,1.0,4095*64
$GNZDA,051602.00,13,08,2023,00,00*71
$GNGNS,051603.00,4733.9695251,N,01900.4865085,E,RRRRNN,28,0.56,198.736,39.430,1.0,4095,V*3E
$GNGGA,051603.00,4733.9695251,N,01900.4865085,E,4,12,0.56,198.736,M,39.430,M,1.0,4095*62
$GNZDA,051603.00,13,08,2023,00,00*70
$GNGNS,051604.00,4733.9695232,N,01900.4865085,E,RRRRNN,28,0.56,198.732,39.430,1.0,4095,V*38
$GNGGA,051604.00,4733.9695232,N,01900.4865085,E,4,12,0.56,198.732,M,39.430,M,1.0,4095*64
$GNZDA,051604.00,13,08,2023,00,00*77
$GNGNS,051605.00,4733.9695214,N,01900.4865083,E,RRRRNN,28,0.56,198.723,39.430,1.0,4095,V*3B
$GNGGA,051605.00,4733.9695214,N,01900.4865083,E,4,12,0.56,198.723,M,39.430,M,1.0,4095*67
$GNZDA,051605.00,13,08,2023,00,00*76
$GNGNS,051606.00,4733.9695237,N,01900.4865071,E,RRRRNN,28,0.56,198.722,39.430,1.0,4095,V*35
$GNGGA,051606.00,4733.9695237,N,01900.4865071,E,4,12,0.56,198.722,M,39.430,M,1.0,4095*69
$GNZDA,051606.00,13,08,2023,00,00*75
$GNGNS,051607.00,4733.9695251,N,01900.4865073,E,RRRRNN,28,0.56,198.730,39.430,1.0,4095,V*35
$GNGGA,051607.00,4733.9695251,N,01900.4865073,E,4,12,0.56,198.730,M,39.430,M,1.0,4095*69
$GNZDA,051607.00,13,08,2023,00,00*74
$GNGNS,051608.00,4733.9695243,N,01900.4865077,E,RRRRNN,28,0.56,198.733,39.430,1.0,4095,V*3E
$GNGGA,051608.00,4733.9695243,N,01900.4865077,E,4,12,0.56,198.733,M,39.430,M,1.0,4095*62
$GNZDA,051608.00,13,08,2023,00,00*7B
$GNGNS,051609.00,4733.9695239,N,01900.4865070,E,RRRRNN,28,0.56,198.731,39.430,1.0,4095,V*37
$GNGGA,051609.00,4733.9695239,N,01900.4865070,E,4,12,0.56,198.731,M,39.430,M,1.0,4095*6B
$GNZDA,051609.00,13,08,2023,00,00*7A
$GNGNS,051610.00,4733.9695213,N,01900.4865070,E,RRRRNN,28,0.56,198.724,39.430,1.0,4095,V*33
$GNGGA,051610.00,4733.9695213,N,01900.4865070,E,4,12,0.56,198.724,M,39.430,M,1.0,4095*6F
$GNZDA,051610.00,13,08,2023,00,00*72
$GNGNS,051611.00,4733.9695243,N,01900.4865081,E,RRRRNN,28,0.56,198.729,39.430,1.0,4095,V*34
$GNGGA,051611.00,4733.9695243,N,01900.4865081,E,4,12,0.56,198.729,M,39.430,M,1.0,4095*68
$GNZDA,051611.00,13,08,2023,00,00*73
$GNGNS,051612.00,4733.9695250,N,01900.4865071,E,RRRRNN,28,0.56,198.730,39.430,1.0,4095,V*32
$GNGGA,051612.00,4733.9695250,N,01900.4865071,E,4,12,0.56,198.730,M,39.430,M,1.0,4095*6E
$GNZDA,051612.00,13,08,2023,00,00*70
$GNGNS,051613.00,4733.9695244,N,01900.4865081,E,RRRRNN,28,0.56,198.733,39.430,1.0,4095,V*3A
$GNGGA,051613.00,4733.9695244,N,01900.4865081,E,4,12,0.56,198.733,M,39.430,M,1.0,4095*66
$GNZDA,051613.00,13,08,2023,00,00*71
$GNGNS,051614.00,4733.9695245,N,01900.4865078,E,RRRRNN,28,0.56,198.728,39.430,1.0,4095,V*30
$GNGGA,051614.00,4733.9695245,N,01900.4865078,E,4,12,0.56,198.728,M,39.430,M,1.0,4095*6C
$GNZDA,051614.00,13,08,2023,00,00*76
$GNGNS,051615.00,4733.9695233,N,01900.4865081,E,RRRRNN,28,0.56,198.728,39.430,1.0,4095,V*36
$GNGGA,051615.00,4733.9695233,N,01900.4865081,E,4,12,0.56,198.728,M,39.430,M,1.0,4095*6A
$GNZDA,051615.00,13,08,2023,00,00*77
$GNGNS,051616.00,4733.9695229,N,01900.4865072,E,RRRRNN,28,0.56,198.725,39.430,1.0,4095,V*3F
$GNGGA,051616.00,4733.9695229,N,01900.4865072,E,4,12,0.56,198.725,M,39.430,M,1.0,4095*63
$GNZDA,051616.00,13,08,2023,00,00*74
$GNGNS,051617.00,4733.9695240,N,01900.4865063,E,RRRRNN,28,0.56,198.724,39.430,1.0,4095,V*30
$GNGGA,051617.00,4733.9695240,N,01900.4865063,E,4,12,0.56,198.724,M,39.430,M,1.0,4095*6C
$GNZDA,051617.00,13,08,2023,00,00*75
$GNGNS,051618.00,4733.9695237,N,01900.4865071,E,RRRRNN,28,0.56,198.729,39.430,1.0,4095,V*31
$GNGGA,051618.00,4733.9695237,N,01900.4865071,E,4,12,0.56,198.729,M,39.430,M,1.0,4095*6D
$GNZDA,051618.00,13,08,2023,00,00*7A
$GNGNS,051619.00,4733.9695240,N,01900.4865076,E,RRRRNN,29,0.56,198.727,39.430,1.0,4095,V*38
$GNGGA,051619.00,4733.9695240,N,01900.4865076,E,4,12,0.56,198.727,M,39.430,M,1.0,4095*65
$GNZDA,051619.00,13,08,2023,00,00*7B
$GNGNS,051620.00,4733.9695211,N,01900.4865078,E,RRRRNN,29,0.56,198.727,39.430,1.0,4095,V*38
$GNGGA,051620.00,4733.9695211,N,01900.4865078,E,4,12,0.56,198.727,M,39.430,M,1.0,4095*65
$GNZDA,051620.00,13,08,2023,00,00*71
$GNGNS,051621.00,4733.9695205,N,01900.4865065,E,RRRRNN,29,0.53,198.725,39.430,1.0,4095,V*37
$GNGGA,051621.00,4733.9695205,N,01900.4865065,E,4,12,0.53,198.725,M,39.430,M,1.0,4095*6A
$GNZDA,051621.00,13,08,2023,00,00*70
$GNGNS,051622.00,4733.9695209,N,01900.4865043,E,RRRRNN,29,0.53,198.726,39.430,1.0,4095,V*3F
$GNGGA,051622.00,4733.9695209,N,01900.4865043,E,4,12,0.53,198.726,M,39.430,M,1.0,4095*62
$GNZDA,051622.00,13,08,2023,00,00*73
$GNGNS,051623.00,4733.9695219,N,01900.4865055,E,RRRRNN,29,0.53,198.728,39.430,1.0,4095,V*36
$GNGGA,051623.00,4733.9695219,N,01900.4865055,E,4,12,0.53,198.728,M,39.430,M,1.0,4095*6B
$GNZDA,051623.00,13,08,2023,00,00*72
$GNGNS,051624.00,4733.9695240,N,01900.4865086,E,RRRRNN,29,0.53,198.733,39.430,1.0,4095,V*39
$GNGGA,051624.00,4733.9695240,N,01900.4865086,E,4,12,0.53,198.733,M,39.430,M,1.0,4095*64
$GNZDA,051624.00,13,08,2023,00,00*75
$GNGNS,051625.00,4733.9695223,N,01900.4865096,E,RRRRNN,29,0.53,198.732,39.430,1.0,4095,V*3D
$GNGGA,051625.00,4733.9695223,N,01900.4865096,E,4,12,0.53,198.732,M,39.430,M,1.0,4095*60
$GNZDA,051625.00,13,08,2023,00,00*74
$GNGNS,051626.00,4733.9695224,N,01900.4865086,E,RRRRNN,29,0.53,198.729,39.430,1.0,4095,V*32
$GNGGA,051626.00,4733.9695224,N,01900.4865086,E,4,12,0.53,198.729,M,39.430,M,1.0,4095*6F
$GNZDA,051626.00,13,08,2023,00,00*77
$GNGNS,051627.00,4733.9695223,N,01900.4865068,E,RRRRNN,29,0.53,198.725,39.430,1.0,4095,V*38
$GNGGA,051627.00,4733.9695223,N,01900.4865068,E,4,12,0.53,198.725,M,39.430,M,1.0,4095*65
$GNZDA,051627.00,13,08,2023,00,00*76
$GNGNS,051628.00,4733.9695225,N,01900.4865059,E,RRRRNN,29,0.53,198.723,39.430,1.0,4095,V*35
$GNGGA,051628.00,4733.9695225,N,01900.4865059,E,4,12,0.53,198.723,M,39.430,M,1.0,4095*68
$GNZDA,051628.00,13,08,2023,00,00*79
$GNGNS,051629.00,4733.9695228,N,01900.4865062,E,RRRRNN,29,0.53,198.725,39.430,1.0,4095,V*37
$GNGGA,051629.00,4733.9695228,N,01900.4865062,E,4,12,0.53,198.725,M,39.430,M,1.0,4095*6A
$GNZDA,051629.00,13,08,2023,00,00*78
$GNGNS,051630.00,4733.9695226,N,01900.4865072,E,RRRRNN,29,0.53,198.727,39.430,1.0,4095,V*32
$GNGGA,051630.00,4733.9695226,N,01900.4865072,E,4,12,0.53,198.727,M,39.430,M,1.0,4095*6F
$GNZDA,051630.00,13,08,2023,00,00*70
$GNGNS,051631.00,4733.9695217,N,01900.4865078,E,RRRRNN,29,0.53,198.724,39.430,1.0,4095,V*38
$GNGGA,051631.00,4733.9695217,N,01900.4865078,E,4,12,0.53,198.724,M,39.430,M,1.0,4095*65
$GNZDA,051631.00,13,08,2023,00,00*71
$GNGNS,051632.00,4733.9695216,N,01900.4865074,E,RRRRNN,29,0.53,198.719,39.430,1.0,4095,V*38
$GNGGA,051632.00,4733.9695216,N,01900.4865074,E,4,12,0.53,198.719,M,39.430,M,1.0,4095*65
$GNZDA,051632.00,13,08,2023,00,00*72
$GNGNS,051633.00,4733.9695213,N,01900.4865067,E,RRRRNN,29,0.53,198.722,39.430,1.0,4095,V*36
$GNGGA,051633.00,4733.9695213,N,01900.4865067,E,4,12,0.53,198.722,M,39.430,M,1.0,4095*6B
$GNZDA,051633.00,13,08,2023,00,00*73
